[
    {
        "name": "Giraya",
        "address": "22 Pl. du Millénaire, 34000 Montpellier",
        "location": {
            "lat": 43.607848623402234,
            "long": 3.8894554656255598
        }
    },
    {
        "name": "Grand Slam",
        "address": "16 Rue Boussairolles, 34000 Montpellier",
        "location": {
            "lat": 43.60768439445637,
            "long": 3.8812468082320444
        }
    },
    {
        "name": "Subway",
        "address": "4 Rue de Verdun, 34000 Montpellier",
        "location": {
            "lat": 43.60756628044681,
            "long": 3.8802459617421103
        }
    },
    {
        "name": "Thai to Box",
        "address": "13 Rue de Verdun, 34000 Montpellier",
        "location": {
            "lat": 43.60722883336906,
            "long": 3.8807294299039223
        }
    },
    {
        "name": "Bistro Régent",
        "address": "26 All. Jules Milhau, 34000 Montpellier",
        "location": {
            "lat": 43.60919396081588,
            "long": 3.8819854087880383
        }
    },
    {
        "name": "Cuisine S",
        "address": "All. Jules Milhau, 34000 Montpellier",
        "location": {
            "lat": 43.60877550101456,
            "long": 3.882493898330213
        }
    },
    {
        "name": "Il Pizzaiolo",
        "address": "14 Rue Boussairolles, 34000 Montpellier",
        "location": {
            "lat": 43.60778300026146,
            "long": 3.881181364013143
        }
    },
    {
        "name": "Takô Sushi",
        "address": "150 Rue de Crète, 34000 Montpellier",
        "location": {
            "lat": 43.60919905630271,
            "long": 3.8901257966708775
        }
    },
    {
        "name": "Kuma-ï Sushi",
        "address": "16 Rue Boussairolles, 34000 Montpellier",
        "location": {
            "lat": 43.607645389549354,
            "long": 3.881336059936078
        }
    },
    {
        "name": "Tiger Noodles",
        "address": "11 Pl. du Millénaire, 34000 Montpellier",
        "location": {
            "lat": 43.60830961926281,
            "long": 3.8890656772043446
        }
    }
]